{
	"capitales": [{
		"nombre": "Cuenca",
		"provincia": "AZUAY",
		"longitud": -79.0045300,
		"latitud": -2.9005500,
		"habitantes": "712.127"
		}, {
		"nombre": "Guaranda",
		"provincia": "BOLIVAR",
		"longitud": -79.0009800,
		"latitud":  -1.5926300,
  		"habitantes": "183.641"
 			
		}, {
		"nombre": "Azogues",
		"provincia": "CAÑAR",
		"longitud": -78.8486000,
		"latitud": -2.7396900,
		"habitantes": "225.184"
		}, {
		"nombre": "Tulcán",
		"provincia": "CARCHI",
		"longitud":  -77.7172700,
		"latitud": 0.8118700,
		"habitantes": "164.524"
		}, {
		"nombre": "Riobamba",
		"provincia": "CHIMBORAZO",
		"longitud": -78.6471200,
		"latitud": -1.6709800,	
		"habitantes": "458.581"
		}, {
		"nombre": "Latacunga",
		"provincia": "COTOPAXI",
		"longitud": -78.6155400,
		"latitud": -0.9352100,
		"habitantes": "409.205"
		}, {
		"nombre": "Machala",
		"provincia": "EL ORO",
		"longitud": -79.9605300,
		"latitud": -3.2586100,
		"habitantes": "600.659" 
 	
		}, {
		"nombre": "Esmeraldas",
		"provincia": "ESMERALDAS",
		"longitud": -79.6539700,
		"latitud": 0.9592000,
 		"habitantes": "534.092"
 	
		}, {
		"nombre": "Puerto Baquerizo Moreno",
		"provincia": "GALAPAGOS",
		"longitud":-78.7333300,
		"latitud": 0.3500000,
		"habitantes": "25.124"
		}, {
		"nombre": "Guayaquil",
		"provincia": "GUAYAS",
		"longitud": -79.9079500,
		"latitud": -2.2058400,
		"habitantes": "3.645 483"
 
		}, {
		"nombre": "Ibarra",
		"provincia": "IMBABURA",
		"longitud": -78.1223300,
		"latitud": 0.3517100,
		"habitantes": "398.244"
		}, {
		"nombre": "Loja",
		"provincia": "LOJA",
		"longitud": -79.2042200,
		"latitud": -3.9931300,
		"habitantes": "448.966"
		}, {
		"nombre": "Babahoyo",
		"provincia": "LOS RIOS",
		"longitud": -79.5344300,
		"latitud":  -1.8021700,
		"habitantes": "778.115"
		}, {
		"nombre": "Portoviejo",
		"provincia": "MANABI",
		"longitud": -80.4544500,
		"latitud": -1.0545800,
		"habitantes": "1.369.780"
		}, {
		"nombre": "Macas",
		"provincia": "MORONA SANTIAGO",
		"longitud": -78.1113500,
		"latitud": -2.3086800,
		"habitantes": "147.940"
		}, {
		"nombre": "Tena",
		"provincia": "NAPO",
		"longitud": -77.8128600,
		"latitud": -0.9938000,
   		"habitantes": "103.697"
		}, {
		"nombre": "Francisco de Orellana",
		"provincia": "ORELLANA",
		"longitud": -75.666667,
		"latitud": -0.933333,
		"habitantes": "136.396"
		}, {
		"nombre": "Puyo",
		"provincia": "PASTAZA",
		"longitud": -78.0025700,
		"latitud": -1.4836900,
  		"habitantes": "83.933"
 	
		}, {
		"nombre": "Quito",
		"provincia": "PICHINCHA",
		"longitud": -78.5249500,
		"latitud": -0.2298500,
		"habitantes": "2.576.287"
		}, {
		"nombre": "Santa Elena",
		"provincia": "SANTA ELENA",
		"longitud": -80.8587300,
		"latitud": -2.2262200,
		"habitantes": "308.693"
 	
		}, {
		"nombre": "Santo Domingo",
		"provincia": "SANTO DOMINGO DE LOS TSACHILAS",
		"longitud": -79.1753600,
		"latitud": -0.2530500,
 		"habitantes": "368.013"
 			
		}, {
		"nombre": "Nueva Loja",
		"provincia": "SUCUMBIOS",
		"longitud": -76.883333,
		"latitud": -0.083333,
		"habitantes": "176.472"
		}, {
		"nombre": "Ambato",
		"provincia": "TUNGURAHUA",
		"longitud": -78.6167500,
		"latitud": -1.2490800,
		"habitantes": "504.583"
 	
		}, {
		"nombre": "Zamora",
		"provincia": "ZAMORA CHINCHIPE",
		"longitud": -5.7445600,
		"latitud": 41.5063300,
		"habitantes": "91.376"
 	
		}

	]
}